[
  {
    "id": "clinicas",
    "name": "Hospital de Clínicas (UBA)",
    "address": "Av. Córdoba 2351, Recoleta",
    "lat": -34.598778,
    "lng": -58.399889,
    "image": "assets/images/centers/clinicas.jpg"
  },
  {
    "id": "fernandez",
    "name": "Hospital Fernández",
    "address": "Av. Cerviño 3356, Palermo",
    "lat": -34.58139,
    "lng": -58.40694,
    "image": "assets/images/centers/fernandez.jpg"
  },
  {
    "id": "durand",
    "name": "Hospital Durand",
    "address": "Av. Díaz Vélez 5044, Caballito",
    "lat": -34.61,
    "lng": -58.438,
    "image": "assets/images/centers/durand.jpg"
  },
  {
    "id": "pirovano",
    "name": "Hospital Pirovano",
    "address": "Av. Monroe 3555, Coghlan",
    "lat": -34.565052,
    "lng": -58.471078,
    "image": "assets/images/centers/pirovano.jpg"
  },
  {
    "id": "argerich",
    "name": "Hospital Argerich",
    "address": "Pi y Margall 750, La Boca",
    "lat": -34.628,
    "lng": -58.3656,
    "image": "assets/images/centers/argerich.jpg"
  },
  {
    "id": "ramos_mejia",
    "name": "Hospital Ramos Mejía",
    "address": "Urquiza 609, Balvanera",
    "lat": -34.61766,
    "lng": -58.409611,
    "image": "assets/images/centers/ramosmejia.jpg"
  },
  {
    "id": "gutierrez",
    "name": "Hospital de Niños R. Gutiérrez",
    "address": "Gallo 1330, Recoleta",
    "lat": -34.59419,
    "lng": -58.41207,
    "image": "assets/images/centers/gutierrez.jpg"
  },
  {
    "id": "muniz",
    "name": "Hospital de Infecciosas F. Muñiz",
    "address": "Uspallata 2272, Parque Patricios",
    "lat": -34.637529,
    "lng": -58.393727,
    "image": "assets/images/centers/muniz.jpg"
  },
  {
    "id": "italiano",
    "name": "Hospital Italiano (Sede Almagro)",
    "address": "Tte. Gral. Perón 4190, Almagro",
    "lat": -34.60639,
    "lng": -58.42583,
    "image": "assets/images/centers/italiano.jpg"
  },
  {
    "id": "britanico",
    "name": "Hospital Británico (Sede Central)",
    "address": "Perdriel 74, Barracas",
    "lat": -34.6352,
    "lng": -58.38796,
    "image": "assets/images/centers/britanico.jpg"
  },
  {
    "id": "tornu",
    "name": "Hospital Tornú",
    "address": "Av. Combatientes de Malvinas 3002, V. Ortúzar",
    "lat": -34.586686,
    "lng": -58.472693,
    "image": "assets/images/centers/tornu.jpg"
  },
  {
    "id": "santojanni",
    "name": "Hospital Santojanni",
    "address": "Pilar 950, Liniers",
    "lat": -34.64798,
    "lng": -58.52062,
    "image": "assets/images/centers/santojanni.jpg"
  }
]
